$GPGGA,045917.999,1727.1690,N,07826.1148,E,0,00,0.0,497.8,M,0.0,M,,0000*62
$GPGSA,A,1,,,,,,,,,,,,,0.0,0.0,0.0*30
$GPGSV,2,1,05,12,63,314,,02,48,006,,24,22,226,,29,08,308,*7F
$GPGSV,2,2,05,15,02,194,*46
$GPRMC,045917.999,A,1727.1690,N,07826.1148,E,000.0,000.0,161113,,,N*7E
$GPVTG,000.0,T,,M,000.0,N,000.0,K,N*02
$GPGGA,045918.999,1727.1690,N,07826.1148,E,0,00,0.0,497.8,M,0.0,M,,0000*6D
$GPGSA,A,1,,,,,,,,,,,,,0.0,0.0,0.0*30
$GPGSV,2,1,05,12,63,314,,02,48,006,,24,22,226,,29,08,308,*7F
$GPGSV,2,2,05,15,02,194,*46
$GPRMC,045918.999,A,1727.1690,N,07826.1148,E,000.0,000.0,161113,,,N*71
$GPVTG,000.0,T,,M,000.0,N,000.0,K,N*02
$GPGGA,045919.999,1727.1690,N,07826.1148,E,0,00,0.0,497.8,M,0.0,M,,0000*6C
$GPGSA,A,1,,,,,,,,,,,,,0.0,0.0,0.0*30
$GPGSV,2,1,05,12,63,314,,02,48,006,,24,22,226,,29,08,308,*7F
$GPGSV,2,2,05,15,02,194,*46
$GPRMC,045919.999,A,1727.1690,N,07826.1148,E,000.0,000.0,161113,,,N*70
$GPVTG,000.0,T,,M,000.0,N,000.0,K,N*02
$GPGGA,045920.999,1727.1690,N,07826.1148,E,0,00,0.0,497.8,M,0.0,M,,0000*66
$GPGSA,A,1,,,,,,,,,,,,,0.0,0.0,0.0*30
$GPGSV,2,1,05,12,63,314,,02,48,006,,24,22,226,,29,08,308,*7F
$GPGSV,2,2,05,15,02,194,*46
$GPRMC,045920.999,A,1727.1690,N,07826.1148,E,000.0,000.0,161113,,,N*7A
$GPVTG,000.0,T,,M,000.0,N,000.0,K,N*02
$GPGGA,045921.999,1727.1690,N,07826.1148,E,0,00,0.0,497.8,M,0.0,M,,0000*67
$GPGSA,A,1,,,,,,,,,,,,,0.0,0.0,0.0*30
$GPGSV,2,1,05,12,63,314,,02,48,006,,24,22,226,,29,08,308,*7F
$GPGSV,2,2,05,15,02,194,*46
$GPRMC,045921.999,A,1727.1690,N,07826.1148,E,000.0,000.0,161113,,,N*7B
$GPVTG,000.0,T,,M,000.0,N,000.0,K,N*02
$GPGGA,045922.999,1727.1690,N,07826.1148,E,0,00,0.0,497.8,M,0.0,M,,0000*64
$GPGSA,A,1,,,,,,,,,,,,,0.0,0.0,0.0*30
$GPGSV,2,1,05,12,63,314,,02,48,006,,24,22,226,,29,08,308,*7F
$GPGSV,2,2,05,15,02,194,*46
$GPRMC,045922.999,A,1727.1690,N,07826.1148,E,000.0,000.0,161113,,,N*78
$GPVTG,000.0,T,,M,000.0,N,000.0,K,N*02
$GPGGA,045923.999,1727.1690,N,07826.1148,E,0,00,0.0,497.8,M,0.0,M,,0000*65
$GPGSA,A,1,,,,,,,,,,,,,0.0,0.0,0.0*30
$GPGSV,2,1,05,12,63,314,,02,48,006,,24,22,226,,29,08,308,*7F
$GPGSV,2,2,05,15,02,194,*46
$GPRMC,045923.999,V,1727.1690,N,07826.1148,E,000.0,000.0,161113,,,N*79
$GPVTG,000.0,T,,M,000.0,N,000.0,K,N*02
$GPGGA,045924.999,1727.1690,N,07826.1148,E,0,00,0.0,497.8,M,0.0,M,,0000*62
$GPGSA,A,1,,,,,,,,,,,,,0.0,0.0,0.0*30
$GPGSV,2,1,05,12,63,314,,02,48,006,,24,22,226,,29,08,308,*7F
$GPGSV,2,2,05,15,02,194,*46
$GPRMC,045924.999,V,1727.1690,N,07826.1148,E,000.0,000.0,161113,,,N*7E
$GPVTG,000.0,T,,M,000.0,N,000.0,K,N*02
$GPGGA,045925.999,1727.1690,N,07826.1148,E,0,00,0.0,497.8,M,0.0,M,,0000*63
$GPGSA,A,1,,,,,,,,,,,,,0.0,0.0,0.0*30
$GPGSV,2,1,05,12,63,314,,02,48,006,,24,22,226,,29,08,308,*7F
$GPGSV,2,2,05,15,02,194,*46
$GPRMC,045925.999,V,1727.1690,N,07826.1148,E,000.0,000.0,161113,,,N*7F
$GPVTG,000.0,T,,M,000.0,N,000.0,K,N*02
$GPGGA,045926.999,1727.1690,N,07826.1148,E,0,00,0.0,497.8,M,0.0,M,,0000*60
$GPGSA,A,1,,,,,,,,,,,,,0.0,0.0,0.0*30
$GPGSV,2,1,05,12,63,314,,02,48,006,,24,22,226,,29,08,308,*7F
$GPGSV,2,2,05,15,02,194,*46
$GPRMC,045926.999,V,1727.1690,N,07826.1148,E,000.0,000.0,161113,,,N*7C
$GPVTG,000.0,T,,M,000.0,N,000.0,K,N*02
$GPGGA,045927.999,1727.1690,N,07826.1148,E,0,00,0.0,497.8,M,0.0,M,,0000*61
$GPGSA,A,1,,,,,,,,,,,,,0.0,0.0,0.0*30
$GPGSV,2,1,05,12,63,314,,02,48,006,,24,22,226,,29,08,308,*7F
$GPGSV,2,2,05,15,02,194,*46
$GPRMC,045927.999,V,1727.1690,N,07826.1148,E,000.0,000.0,161113,,,N*7D
$GPVTG,000.0,T,,M,000.0,N,000.0,K,N*02
$GPGGA,045928.999,1727.1690,N,07826.1148,E,0,00,0.0,497.8,M,0.0,M,,0000*6E
$GPGSA,A,1,,,,,,,,,,,,,0.0,0.0,0.0*30
$GPGSV,2,1,05,12,63,314,,02,48,006,,24,22,226,,29,08,308,*7F
$GPGSV,2,2,05,15,02,194,*46
$GPRMC,045928.999,V,1727.1690,N,07826.1148,E,000.0,000.0,161113,,,N*72
$GPVTG,000.0,T,,M,000.0,N,000.0,K,N*02
$GPGGA,045929.999,1727.1690,N,07826.1148,E,0,00,0.0,497.8,M,0.0,M,,0000*6F
$GPGSA,A,1,,,,,,,,,,,,,0.0,0.0,0.0*30
$GPGSV,2,1,05,12,63,314,,02,48,006,,24,22,226,,29,08,308,*7F
$GPGSV,2,2,05,15,02,194,*46
$GPRMC,045929.999,A,1727.1690,N,07826.1148,E,000.0,000.0,161113,,,N*73
$GPVTG,000.0,T,,M,000.0,N,000.0,K,N*02
$GPGGA,045930.999,1727.1690,N,07826.1148,E,0,00,0.0,497.8,M,0.0,M,,0000*67
$GPGSA,A,1,,,,,,,,,,,,,0.0,0.0,0.0*30
$GPGSV,2,1,05,12,63,314,,02,47,006,,24,22,226,,29,08,308,*70
$GPGSV,2,2,05,15,02,194,*46
$GPRMC,045930.999,V,1727.1690,N,07826.1148,E,000.0,000.0,161113,,,N*7B
$GPVTG,000.0,T,,M,000.0,N,000.0,K,N*02
$GPGGA,045931.999,1727.1690,N,07826.1148,E,0,00,0.0,497.8,M,0.0,M,,0000*66
$GPGSA,A,1,,,,,,,,,,,,,0.0,0.0,0.0*30
$GPGSV,2,1,05,12,63,314,,02,47,006,,24,22,226,,29,08,308,*70
$GPGSV,2,2,05,15,02,194,*46
$GPRMC,045931.999,V,1727.1690,N,07826.1148,E,000.0,000.0,161113,,,N*7A
$GPVTG,000.0,T,,M,000.0,N,000.0,K,N*02
$GPGGA,045932.999,1727.1690,N,07826.1148,E,0,00,0.0,497.8,M,0.0,M,,0000*65
$GPGSA,A,1,,,,,,,,,,,,,0.0,0.0,0.0*30
$GPGSV,2,1,05,12,63,314,,02,47,006,,24,22,226,,29,08,308,*70
$GPGSV,2,2,05,15,02,194,*46
$GPRMC,045932.999,V,1727.1690,N,07826.1148,E,000.0,000.0,161113,,,N*79
$GPVTG,000.0,T,,M,000.0,N,000.0,K,N*02
$GPGGA,045933.999,1727.1690,N,07826.1148,E,0,00,0.0,497.8,M,0.0,M,,0000*64
$GPGSA,A,1,,,,,,,,,,,,,0.0,0.0,0.0*30
$GPGSV,2,1,05,12,63,314,,02,47,006,,24,22,226,,29,08,308,*70
$GPGSV,2,2,05,15,02,194,*46
$GPRMC,045933.999,V,1727.1690,N,07826.1148,E,000.0,000.0,161113,,,N*78
$GPVTG,000.0,T,,M,000.0,N,000.0,K,N*02
$GPGGA,045934.999,1727.1690,N,07826.1148,E,0,00,0.0,497.8,M,0.0,M,,0000*63
$GPGSA,A,1,,,,,,,,,,,,,0.0,0.0,0.0*30
$GPGSV,2,1,05,12,63,314,,02,47,006,,24,22,226,,29,08,308,*70
$GPGSV,2,2,05,15,02,194,*46
$GPRMC,045934.999,V,1727.1690,N,07826.1148,E,000.0,000.0,161113,,,N*7F
$GPVTG,000.0,T,,M,000.0,N,000.0,K,N*02
$GPGGA,045935.999,1727.1690,N,07826.1148,E,0,00,0.0,497.8,M,0.0,M,,0000*62
$GPGSA,A,1,,,,,,,,,,,,,0.0,0.0,0.0*30
$GPGSV,2,1,05,12,63,314,,02,47,006,,24,22,226,,29,08,308,*70
$GPGSV,2,2,05,15,02,194,*46
$GPRMC,045935.999,V,1727.1690,N,07826.1148,E,000.0,000.0,161113,,,N*7E
$GPVTG,000.0,T,,M,000.0,N,000.0,K,N*02
$GPGGA,045936.999,1727.1690,N,07826.1148,E,0,00,0.0,497.8,M,0.0,M,,0000*61
$GPGSA,A,1,,,,,,,,,,,,,0.0,0.0,0.0*30
$GPGSV,2,1,05,12,63,314,,02,47,006,,24,22,226,,29,08,308,*70
$GPGSV,2,2,05,15,02,194,*46
$GPRMC,045936.999,V,1727.1690,N,07826.1148,E,000.0,000.0,161113,,,N*7D
$GPVTG,000.0,T,,M,000.0,N,000.0,K,N*02
$GPGGA,045937.999,1727.1690,N,07826.1148,E,0,00,0.0,497.8,M,0.0,M,,0000*60
$GPGSA,A,1,,,,,,,,,,,,,0.0,0.0,0.0*30
$GPGSV,2,1,05,12,63,314,,02,47,006,,24,22,226,,29,08,308,*70
$GPGSV,2,2,05,15,02,194,*46
$GPRMC,045937.999,V,1727.1690,N,07826.1148,E,000.0,000.0,161113,,,N*7C
$GPVTG,000.0,T,,M,000.0,N,000.0,K,N*02
$GPGGA,045938.999,1727.1690,N,07826.1148,E,0,00,0.0,497.8,M,0.0,M,,0000*6F
$GPGSA,A,1,,,,,,,,,,,,,0.0,0.0,0.0*30
$GPGSV,2,1,05,12,63,314,,02,47,006,,24,22,226,,29,08,308,*70
$GPGSV,2,2,05,15,02,194,*46
$GPRMC,045938.999,V,1727.1690,N,07826.1148,E,000.0,000.0,161113,,,N*73
$GPVTG,000.0,T,,M,000.0,N,000.0,K,N*02
$GPGGA,045939.999,1727.1690,N,07826.1148,E,0,00,0.0,497.8,M,0.0,M,,0000*6E
$GPGSA,A,1,,,,,,,,,,,,,0.0,0.0,0.0*30
$GPGSV,2,1,05,12,63,314,,02,47,006,,24,22,226,,29,08,308,*70
$GPGSV,2,2,05,15,02,194,*46
$GPRMC,045939.999,V,1727.1690,N,07826.1148,E,000.0,000.0,161113,,,N*72
$GPVTG,000.0,T,,M,000.0,N,000.0,K,N*02
$GPGGA,045940.999,1727.1690,N,07826.1148,E,0,00,0.0,497.8,M,0.0,M,,0000*60
$GPGSA,A,1,,,,,,,,,,,,,0.0,0.0,0.0*30
$GPGSV,2,1,05,12,63,314,,02,47,006,,24,21,226,,29,08,308,*73
$GPGSV,2,2,05,15,02,194,*46
$GPRMC,045940.999,V,1727.1690,N,07826.1148,E,000.0,000.0,161113,,,N*7C
$GPVTG,000.0,T,,M,000.0,N,000.0,K,N*02
$GPGGA,045941.999,1727.1690,N,07826.1148,E,0,00,0.0,497.8,M,0.0,M,,0000*61
$GPGSA,A,1,,,,,,,,,,,,,0.0,0.0,0.0*30
$GPGSV,2,1,05,12,63,314,,02,47,006,,24,21,226,,29,08,308,*73
$GPGSV,2,2,05,15,02,194,*46
$GPRMC,045941.999,V,1727.1690,N,07826.1148,E,000.0,000.0,161113,,,N*7D
$GPVTG,000.0,T,,M,